{"type":"FeatureCollection","features":[{"type":"Feature","properties":{"Movie":"Bottle Rocket","Date":1996,"Filming location":"Dallas, Texas, United States"},"geometry":{"type":"Point","coordinates":[-96.797,32.7767]}},{"type":"Feature","properties":{"Movie":"Bottle Rocket","Date":1996,"Filming location":"Fort Worth, Texas, United States"},"geometry":{"type":"Point","coordinates":[-97.33181,32.729442]}},{"type":"Feature","properties":{"Movie":"Bottle Rocket","Date":1996,"Filming location":"Hillsboro, Texas, United States"},"geometry":{"type":"Point","coordinates":[-97.116032,32.015594]}},{"type":"Feature","properties":{"Movie":"Rushmore","Date":1998,"Filming location":"Houston, Texas, United States"},"geometry":{"type":"Point","coordinates":[-95.361416,29.784753]}},{"type":"Feature","properties":{"Movie":"The Royal Tenenbaums","Date":2001,"Filming location":"New York City, New York, United States"},"geometry":{"type":"Point","coordinates":[-73.9708,40.68295]}},{"type":"Feature","properties":{"Movie":"The Royal Tenenbaums","Date":2001,"Filming location":"Jersey City, New Jersey, United States"},"geometry":{"type":"Point","coordinates":[-74.072108,40.710452]}},{"type":"Feature","properties":{"Movie":"The Life Aquatic with Steve Zissou","Date":2004,"Filming location":"Ponziane Islands, Italy"},"geometry":{"type":"Point","coordinates":[12.95844,40.897049]}},{"type":"Feature","properties":{"Movie":"The Life Aquatic with Steve Zissou","Date":2004,"Filming location":"Rome, Italy"},"geometry":{"type":"Point","coordinates":[12.52809,41.878243]}},{"type":"Feature","properties":{"Movie":"The Life Aquatic with Steve Zissou","Date":2004,"Filming location":"Naples, Italy"},"geometry":{"type":"Point","coordinates":[14.237375,40.862838]}},{"type":"Feature","properties":{"Movie":"The Darjeeling Limited","Date":2007,"Filming location":"Udaipur, India"},"geometry":{"type":"Point","coordinates":[73.709683,24.576885]}},{"type":"Feature","properties":{"Movie":"The Darjeeling Limited","Date":2007,"Filming location":"Jodhpur, India"},"geometry":{"type":"Point","coordinates":[73.023376,26.261398]}},{"type":"Feature","properties":{"Movie":"The Darjeeling Limited","Date":2007,"Filming location":"Long Island, New York, United States"},"geometry":{"type":"Point","coordinates":[-73.9364,40.753453]}},{"type":"Feature","properties":{"Movie":"The Darjeeling Limited","Date":2007,"Filming location":"Osian, India"},"geometry":{"type":"Point","coordinates":[73.786591,26.950688]}},{"type":"Feature","properties":{"Movie":"Fantastic Mr. Fox","Date":2007,"Filming location":"New York City, New York, United States"},"geometry":{"type":"Point","coordinates":[-73.9708,40.68295]}},{"type":"Feature","properties":{"Movie":"Fantastic Mr. Fox","Date":2009,"Filming location":"London, England, UK"},"geometry":{"type":"Point","coordinates":[-0.099076,51.509648]}},{"type":"Feature","properties":{"Movie":"Moonrise Kingdom","Date":2012,"Filming location":"Jamestown, Rhode Island, United States"},"geometry":{"type":"Point","coordinates":[-71.3712,41.4963]}},{"type":"Feature","properties":{"Movie":"Moonrise Kingdom","Date":2012,"Filming location":"West Greenwich, Rhode Island, United States"},"geometry":{"type":"Point","coordinates":[-71.667041,41.628856]}},{"type":"Feature","properties":{"Movie":"Moonrise Kingdom","Date":2012,"Filming location":"Tiverton, Rhode Island, United States"},"geometry":{"type":"Point","coordinates":[-71.197454,41.6591]}},{"type":"Feature","properties":{"Movie":"Moonrise Kingdom","Date":2012,"Filming location":"Hopkinton, Massachusetts, United States"},"geometry":{"type":"Point","coordinates":[-71.543627,42.226168]}},{"type":"Feature","properties":{"Movie":"Moonrise Kingdom","Date":2012,"Filming location":"Narragansett Bay, Rhode Island, United States"},"geometry":{"type":"Point","coordinates":[-71.321996,41.601225]}},{"type":"Feature","properties":{"Movie":"Moonrise Kingdom","Date":2012,"Filming location":"Watch Hill, Rhode Island, United States"},"geometry":{"type":"Point","coordinates":[-71.848558,41.315263]}},{"type":"Feature","properties":{"Movie":"Moonrise Kingdom","Date":2012,"Filming location":"South Kingstown,Rhode Island, United States"},"geometry":{"type":"Point","coordinates":[-71.542411,41.45101]}},{"type":"Feature","properties":{"Movie":"Moonrise Kingdom","Date":2012,"Filming location":"Newport,Rhode Island, United States"},"geometry":{"type":"Point","coordinates":[-71.319112,41.491926]}},{"type":"Feature","properties":{"Movie":"Moonrise Kingdom","Date":2012,"Filming location":"Rockville, Rhode Island, United States"},"geometry":{"type":"Point","coordinates":[-77.158493,39.080026]}},{"type":"Feature","properties":{"Movie":"The Grand Budapest Hotel","Date":2014,"Filming location":"Dresden, Germany"},"geometry":{"type":"Point","coordinates":[13.731021,51.055604]}},{"type":"Feature","properties":{"Movie":"The Grand Budapest Hotel","Date":2014,"Filming location":"Kraków, Poland"},"geometry":{"type":"Point","coordinates":[19.987345,50.052652]}},{"type":"Feature","properties":{"Movie":"The Grand Budapest Hotel","Date":2014,"Filming location":"Zwickau, Germany"},"geometry":{"type":"Point","coordinates":[12.487302,50.716316]}},{"type":"Feature","properties":{"Movie":"The Grand Budapest Hotel","Date":2014,"Filming location":"Elbe Sandstone Mountains, Germany"},"geometry":{"type":"Point","coordinates":[14.082434,50.798598]}},{"type":"Feature","properties":{"Movie":"The Grand Budapest Hotel","Date":2014,"Filming location":"Kriebstein, Germany"},"geometry":{"type":"Point","coordinates":[13.018631,51.049192]}},{"type":"Feature","properties":{"Movie":"The Grand Budapest Hotel","Date":2014,"Filming location":"Postdam, Germany"},"geometry":{"type":"Point","coordinates":[13.030564,52.414098]}},{"type":"Feature","properties":{"Movie":"The Grand Budapest Hotel","Date":2014,"Filming location":"Waldenburg, Germany"},"geometry":{"type":"Point","coordinates":[12.601941,50.87658]}},{"type":"Feature","properties":{"Movie":"The Grand Budapest Hotel","Date":2014,"Filming location":"Görlitz, Germany"},"geometry":{"type":"Point","coordinates":[14.973005,51.15132]}},{"type":"Feature","properties":{"Movie":"Isle of Dogs","Date":2018,"Filming location":"London, England, UK"},"geometry":{"type":"Point","coordinates":[-0.099076,51.509648]}},{"type":"Feature","properties":{"Movie":"The French Dispatch","Date":2021,"Filming location":"Angoulême, France"},"geometry":{"type":"Point","coordinates":[0.147707,45.647542]}},{"type":"Feature","properties":{"Movie":"Asteroid City","Date":2023,"Filming location":"Chinchón, Spain"},"geometry":{"type":"Point","coordinates":[-3.418692,40.14016]}},{"type":"Feature","properties":{"Movie":"Asteroid City","Date":2023,"Filming location":"Madrid, Spain"},"geometry":{"type":"Point","coordinates":[-3.669245,40.429913]}},{"type":"Feature","properties":{"Movie":"The Wonderful Story of Henry Sugar","Date":2023,"Filming location":"London, England, UK"},"geometry":{"type":"Point","coordinates":[-0.099076,51.509648]}}]}